stop_id,stop_name,stop_desc,zone_id
"StopArea:DUA8700147","Aéroport Charles-de-Gaulle 2 RER","","5"
"StopArea:DUA8711300","Paris Est","Place 11 Novembre 1918, 75010 Paris","1"
"StopArea:DUA8711347","Le Raincy - Villemomble - Montfermeil","Cour de la gare 93340 Le Raincy","4"
"StopArea:DUA8711377","Les Boullereaux Champigny","Avenue Danielle Casanova 94500 Champigny sur Marne","3"
"StopArea:DUA8711380","Noisy-le-Grand Les Yvris","avenue du bois St Martin 93160 Noisy le Grand","4"
"StopArea:DUA8711386","Livry-Gargan","Boulevard Louis Pasteur 93320 Les Pavillons sous Bois","4"
"StopArea:DUA8711389","Sevran Freinville","Boulevard d'Aulnay 93270 Sevran","4"
"StopArea:DUA8711602","Ozoir-la-Ferrière","Avenue Raoul Nordling 77330 Ozoir la Ferriere","5"
"StopArea:DUA8711604","Émerainville - Pontault-Combault","2 avenue de la gare 77184 Emerainville","5"
"StopArea:DUA8711608","Mormant","Place de la gare 77720 Mormant","5"
"StopArea:DUA8711622","Marles-en-Brie","CHEMIN DE FER 77610 LA HOUSSAIE EN BRIE","5"
"StopArea:DUA8711624","Mortcerf","AVENUE DE LA GARE 77163 MORTCERF","5"
"StopArea:DUA8711627","Faremoutiers - Pommeuse","avenue de la Bilbauderie 77515 Pommeuse","5"
"StopArea:DUA8711639","La Ferté-Gaucher","","5"
"StopArea:DUA8711640","Montry - Condé-Sainte-Libiaire","Avenue du Maréchal Foch 77450 Montry","5"
"StopArea:DUA8711649","Trilport","","5"
"StopArea:DUA8711650","Changis-sur-Marne - Saint-Jean-les-Deux-Jumeaux","place de la Gare 77660 CHANGIS-SUR-MARNE","5"
"StopArea:DUA8711651","La Ferté-sous-Jouarre","10 place de la gare 77260 le Ferté-sous-Jouarre","5"
"StopArea:DUA8711656","Nogent-L'Artaud - Charly","","100"
"StopArea:DUA8711666","Mareuil-sur-Ourcq","","100"
"StopArea:DUA8727144","Sevran Beaudottes","Avenue Raoul Dautry, 93270 Sevran","4"
"StopArea:DUA8727147","Le Blanc-Mesnil","Rue Pierre Semard, 93150, Le Blanc Mesnil","3"
"StopArea:DUA8727157","Nanteuil-le-Haudouin","","100"
"StopArea:DUA8727214","Les Grésillons","Avenue des Gresillons 923230 Genneviliers","3"
"StopArea:DUA8727602","Enghien-les-Bains","rue du Départ, 95880 Enghien-les-Bains","4"
"StopArea:DUA8727603","Champ de Courses d'Enghien","Chaussée Jules César 95230 Soisy-sous-Montmorency","4"
"StopArea:DUA8727613","Pontoise","Place du général de Gaulle 95300 Pontoise","5"
"StopArea:DUA8727614","Épluches","Impasse de la Gare 95310 Saint-Ouen-l'Aumône","5"
"StopArea:DUA8727622","Villiers-le-Bel - Gonesse","1 Place Général Leclerc  95400 Villilers le Bel","4"
"StopArea:DUA8727625","Louvres","Place de la Gare 95380 Louvres","5"
"StopArea:DUA8727627","Orry-la-Ville - Coye-la-Forêt","","100"
"StopArea:DUA8727636","Groslay","Rue Charles de Gaulles","4"
"StopArea:DUA8727639","Écouen - Ézanville","PLACE DE LA GARE 95440 ECOUEN","4"
"StopArea:DUA8727641","Précy-sur-Oise","","100"
"StopArea:DUA8727646","Persan - Beaumont-sur-Oise","Avenue de la Gare 95340 Persan","5"
"StopArea:DUA8727654","Auvers-sur-Oise","Rue du Général De Gaulle, 95430 Auvers S/Oise","5"
"StopArea:DUA8727656","Viarmes","Place de la gare 95270 Viarmes","5"
"StopArea:DUA8727657","Luzarches","Boulevard de La Fraternité, 95270 Luzarches","5"
"StopArea:DUA8727667","Mériel","Rue Théodore Rousseau 95630 Meriel","5"
"StopArea:DUA8728187","Magenta","160 rue La Fayette 75010 Paris","1"
"StopArea:DUA8733293","Guillerval Mondésir","","5"
"StopArea:DUA8736692","Saint-Germain-en-Laye Bel-Air - Fourqueux","Place du Préfet Claude Erignac 78100 Saint Germain en Laye","4"
"StopArea:DUA8738108","Colombes","2-4 Rue St Denis 92700 Colombes","3"
"StopArea:DUA8738149","Andrésy","Place de la Gare 78570 Andrésy","5"
"StopArea:DUA8738150","Mantes-la-Jolie","Place du 8 Mai 1945 78200 Mantes la Jolie","5"
"StopArea:DUA8738159","Mantes Station","Place de l'Europe 78200 Mantes la Ville","5"
"StopArea:DUA8738171","Mareil-sur-Mauldre","Rue Christian Puillard 78124 Mareil Sur Mauldre","5"
"StopArea:DUA8738226","Vaucresson","Place de Charles de Gaulle 92420 Vaucresson","4"
"StopArea:DUA8738235","Saint-Cloud","42 Rue Dailly 92210 Saint Cloud","3"
"StopArea:DUA8738709","Bueil","","100"
"StopArea:DUA8739300","Versailles Chantier","4 Rue de l'Abbé Rousseau 78000 Versailles","4"
"StopArea:DUA8739307","Issy-les-Moulineaux","87, Avenue de Verdun 92130   Issy-les-Moulineaux","2"
"StopArea:DUA8739329","Le Perray-en-Yvelines","Place de la Gare 78610 Le Perray en Yvelines","5"
"StopArea:DUA8739342","Plaisir - Thiverval-Grignon","Place de la Gare 78610 Le Perray en Yvelines","5"
"StopArea:DUA8739345","Tacoignières - Richebourg","Rue de la Gare 78910 Tacoignières","5"
"StopArea:DUA8739364","Gravigny Balizy","Rue des Templiers 91160   Longjumeau","4"
"StopArea:DUA8739384","Saint-Quentin en Yvelines","Place Charles de Gaulle 78180 Montigny le Bretonneux","5"
"StopArea:DUA8739411","Épernon","","100"
"StopArea:DUA8739413","Maintenon","","100"
"StopArea:DUA8739414","Saint-Piat","","100"
"StopArea:DUA8741995","Serans","","100"
"StopArea:DUA8749210","Les Ardoines","Rue Léon Geoffroy 94400   Vitry-sur-Seine","3"
"StopArea:DUA8754017","Dourdan la Forêt","Chemin du Champ de course 91410   Dourdan","5"
"StopArea:DUA8754514","Étréchy","Boulevard Pasteur 91580   Etrechy","5"
"StopArea:DUA8754516","Lardy","Rue de la Roche qui Tourne 91510   Lardy","5"
"StopArea:DUA8754521","Sainte-Geneviève-des-Bois","Place de la Gare 91700   Sainte-Geneviève-des-Bois","5"
"StopArea:DUA8754525","Athis-Mons","Place de Rothenbourg ob der Tauber 91200   Athis-Mons","4"
"StopArea:DUA8754530","Ivry-sur-Seine","Place Marcel Cachin 94200   Ivry-sur-Seine","2"
"StopArea:DUA8754535","Saint-Martin d'Étampes","Rue Salvador Allende 91150   Etampes","5"
"StopArea:DUA8754545","La Norville - Saint-Germain-lès-Arpajon","Rue de la Gare 91290   La Norville","5"
"StopArea:DUA8754549","Breuillet Village","Rue de la Gare 91650   Breuillet","5"
"StopArea:DUA8754570","Voves","","100"
"StopArea:DUA8768100","Corbeil-Essonnes","Place Henri Barbusse 91100 Corbeil Essonnes","5"
"StopArea:DUA8768131","Viry-Châtillon","Avenue du Général de Gaulle 91170 Viry Châtillon","4"
"StopArea:DUA8768133","Ris-Orangis","5 Rue Edmond Bonte 91130 Ris-Orangis","5"
"StopArea:DUA8768139","Le Bras de Fer","Place du Commandant Charcot / Bld des Coquibus 9100  Evry","5"
"StopArea:DUA8768200","Melun","Place de Galliéni 77000 Melun","5"
"StopArea:DUA8768212","Brunoy","Rue de la Gare 91800 Evry","5"
"StopArea:DUA8768215","Lieusaint - Moissy-Cramayel","Gare SNCF 77127 Lieusaint","5"
"StopArea:DUA8768221","Fontainebleau - Avon","Place de la gare 77210 Avon","5"
"StopArea:DUA8768246","Vernou-la-Celle-sur-Seine","route de montereau 77670 Vernou-le-Celle-sur-Seine","5"
"StopArea:DUA8768313","Pont-sur-Yonne","","100"
"StopArea:DUA8768324","Joigny","","100"
"StopArea:DUA8768441","Malesherbes","","100"
"StopArea:DUA8775807","Le Vésinet","","4"
"StopArea:DUA8775808","Le Vésinet - Le Pecq","","4"
"StopArea:DUA8775809","Saint-Germain-en-Laye","","4"
"StopArea:DUA8775814","Joinville-le-Pont","","3"
"StopArea:DUA8775832","Bry-sur-Marne","","4"
"StopArea:DUA8775835","Noisiel","","5"
"StopArea:DUA8775860","Châtelet les Halles","","1"
"StopArea:DUA8775861","Luxembourg","","1"
"StopArea:DUA8775864","Cité Universitaire","","1"
"StopArea:DUA8775868","Bagneux","","3"
"StopArea:DUA8775871","Fontenay-aux-Roses","","3"
"StopArea:DUA8775886","La Hacquinière","","5"
"StopArea:DUA8775888","Courcelle sur Yvette","","5"
"StopArea:DUA8711370","Rosny-sous-Bois","1 place des Martyrs de la Résistance 93110 ROSNY-SOUS-BOIS","3"
"StopArea:DUA8711609","Nangis","Place de la gare 77370 Nangis","5"
"StopArea:DUA8711621","Tournan","1 rue Georges Clémenceau 77220 TOURNAN-EN-BRIE","5"
"StopArea:DUA8711667","La Ferté-Milon","","100"
"StopArea:DUA8711674","Villiers-sur-Morin - Montbarbin","Rue du souterrain 77580 Crécy-la-Chapelle","5"
"StopArea:DUA8711677","Crécy-la-Chapelle","Routes des bouleurs 77580 Crécy-la-Chapelle","5"
"StopArea:DUA8727112","Épinay-sur-Seine - Villetaneuse","Route de Saint-Leu 93800 Villetaneuse","3"
"StopArea:DUA8727117","La Barre Ormesson","2? Rue de la Concorde, 95170 Deuil La Barre","4"
"StopArea:DUA8727120","Gennevilliers","","3"
"StopArea:DUA8727124","Saint-Ouen","Rue Dora Maar 93400 Saint-Ouen","2"
"StopArea:DUA8727141","Aulnay-sous-Bois","4 Bld du 11 Nov, 93600 Aulnay Sous Bois","4"
"StopArea:DUA8727146","Aéroport Charles de Gaulle 2","4 Rue du Versau, 93290 Tremblay en France","5"
"StopArea:DUA8727153","Dammartin-en-Goële - Juilly - Saint-Mard","1 place de la gare 77230 Saint-Mard","5"
"StopArea:DUA8727158","Ormoy-Villers","","100"
"StopArea:DUA8727159","Crépy-en-Valois","","100"
"StopArea:DUA8727202","Villaines-sous-Bois","Rue de la Halte Villaines 95570 Villaines-sous-Bois","5"
"StopArea:DUA8727600","Creil","","100"
"StopArea:DUA8727615","Pont Petit","Rue Louis Auguste Blanqui 95310 Saint-Ouen-l'Aumône","5"
"StopArea:DUA8727617","Saint-Gratien","Rue de Verdun 95210 Saint-Gratien","5"
"StopArea:DUA8727618","Sannois","Place Salvador Allende 95110 Sannois","4"
"StopArea:DUA8727644","Boran-sur-Oise","","100"
"StopArea:DUA8727652","L'Isle-Adam - Parmain","Rue Raymond Poincaré, 95290 Parmain","5"
"StopArea:DUA8727653","Valmondois","Rue du Port aux Loups 95430 Butry-sur-Oise","5"
"StopArea:DUA8727662","Vaucelles","Rue de Vaucelles 95150 Taverny","4"
"StopArea:DUA8727666","Méry","Avenue Marcel Perrin 95540 Mery Sur Oise","5"
"StopArea:DUA8728189","Haussmann Saint-Lazare","13 Rue d'Amsterdam 75008 Paris","1"
"StopArea:DUA8732832","Bibliothèque François Mitterrand","","1"
"StopArea:DUA8733296","Dommerville Crédit Agricole","","5"
"StopArea:DUA8733448","Neuville-sur-Oise Université","Accès par l'avenue du boulevard circulaire","5"
"StopArea:DUA8738101","Péreire Levallois","4 bis, Place du Maréchal Juin  75017   Paris","1"
"StopArea:DUA8738102","Neuilly Porte Maillot","82, Avenue de la Grande Armée 75017   Paris","1"
"StopArea:DUA8738104","Avenue Henri Martin","Boulevard Edouard Vaillant 93190 Livry-Gargan","1"
"StopArea:DUA8738107","Bois-Colombes","1 Place Gabriel Péri 92270 Bois Colombes","3"
"StopArea:DUA8738111","Pont Cardinet","145 Rue Cardinet 75017 Paris","1"
"StopArea:DUA8738113","Asnières-sur-Seine","Rue de la Station 92600 Asnières sur Seine","3"
"StopArea:DUA8738116","Montgeroult - Courcelles-sur-Viosne","Rue du Moulin 95650 Montgeroult","5"
"StopArea:DUA8738124","Gisors","","100"
"StopArea:DUA8738142","Saint-Ouen-l'Aumône Quartier de l'Église","Rue d'Eragny , 95310 Saint-Ouen-l'Aumône","5"
"StopArea:DUA8738145","Conflans Fin d'Oise","Place Geoges Clémenceau","5"
"StopArea:DUA8738147","Chanteloup-les-Vignes","Avenue Général de Gaulle","5"
"StopArea:DUA8738181","Vaux-sur-Seine","Avenue de la gare 78740 Vaux Sur Seine","5"
"StopArea:DUA8738190","Cergy Préfecture","Gare routière et Parvis en parallèle au Bld de l'Oise","5"
"StopArea:DUA8738238","Puteaux","2 Rue Ferdinand Pelloutier 92800 Puteaux","3"
"StopArea:DUA8738286","Versailles Rive Droite","40, Rue du Maréchal Foch 78000  Versailles","4"
"StopArea:DUA8738605","Achères Grand Cormier","RN184 / RUE DE LA CITE CROIX SAINT SIMON","5"
"StopArea:DUA8738641","Sartrouville","Places des fusillés par la rue Lamartine","4"
"StopArea:DUA8738657","Poissy","Place de la gare par l'Avenue Maurice Berteaux","5"
"StopArea:DUA8738676","Épône - Mézières-sur-Seine","Place de la Gare 78680 Epône","5"
"StopArea:DUA8738700","Évreux Normandie","","100"
"StopArea:DUA8739153","Vanves - Malakoff","Place Albert Culot 92170 Vanves","2"
"StopArea:DUA8739303","Invalides","2, Rue Esnault Pelterie 75007   Paris","1"
"StopArea:DUA8739304","Pont de l'Alma","Place de la Résistance 75007   Paris","1"
"StopArea:DUA8739305","Champ de Mars Tour Eiffel","Quai Branly ( pont Bir Hakeim ) 75015   Paris","1"
"StopArea:DUA8739311","Bellevue","","3"
"StopArea:DUA8739316","Porchefontaine","Avenue de Porchefontaine 78000   Versailles","4"
"StopArea:DUA8739317","Chaville - Vélizy-Villacoublay","1, Place de Verdun 78140   Viroflay","3"
"StopArea:DUA8739322","Saint-Cyr","Place Pierre Sémard 78120 Saint-Cyr l'Ecole","5"
"StopArea:DUA8739331","Rambouillet","1 Place Fernand Prudhomme 78120 Rambouillet","5"
"StopArea:DUA8739351","Jouy-en-Josas","Avenue Jean Jaurès 78350   Jouy-en-Josas","4"
"StopArea:DUA8739361","Longjumeau","Place de la Gare 91160   Longjumeau","4"
"StopArea:DUA8739388","Villiers-Saint-Fréderic - Neauphle-le-Château - Jouars-Pontchartrain","Place de la Gare 78640 Villiers Saint Frédérique","5"
"StopArea:DUA8739400","Chartres","","100"
"StopArea:DUA8754318","Boulainvilliers","52, Rue des Vignes 75016   Paris","1"
"StopArea:DUA8754515","Chamarande","Place de la Gare 91730   Chamarande","5"
"StopArea:DUA8754527","Villeneuve-le-Roi","Place de la Gare 94290   Villeneuve-le-Roi","4"
"StopArea:DUA8754528","Choisy-le-Roi","Avenue du 8 mai 45 94600   Choisy-le-Roi","3"
"StopArea:DUA8754547","Égly","Impasse de la Masure 91520   Egly","5"
"StopArea:DUA8754573","Bonneval","","100"
"StopArea:DUA8754620","Orly Ville","1, Place du 8 mai 45 94310   Orly","4"
"StopArea:DUA8754629","Rungis la Fraternelle","Rue des Alpes 94150   Rungis","4"
"StopArea:DUA8754730","Musée d'Orsay","7, Quai Anatole France 75007   Paris","1"
"StopArea:DUA8768135","Grand Bourg","Passage à niveau n°1O  Grand bourg 91000 Evry","5"
"StopArea:DUA8768141","Mennecy","Place du 8 mai 1945 91540 Mennecy","5"
"StopArea:DUA8768210","Montgeron - Crosne","Place Joseph Piette","4"
"StopArea:DUA8768211","Yerres","Place de la Gare 91330 Yerres","4"
"StopArea:DUA8768214","Combs-la-Ville - Quincy-sous-Sénart","Avenue de la Gare, 77380 Combs La Ville","5"
"StopArea:DUA8768217","Le Mée-sur-Seine","Allée de la Gare 77350 Le Mée","5"
"StopArea:DUA8768230","Montereau","Place Pierre Sémard 77130 Montereau-Fault-Yonne","5"
"StopArea:DUA8768241","Chartrettes","Avenue Galliéni 77770 Chartrettes","5"
"StopArea:DUA8768244","Vulaines-sur-Seine - Samoreau","Avenue de la Gare , 77870 Vulaines-sur-Seine","5"
"StopArea:DUA8768247","La Grande-Paroisse","Cité de la Gare 77130 La grande Paroisse","5"
"StopArea:DUA8768254","Saint-Fargeau","Avenue de la Gare 77310 Saint Fargeau Ponthierry","5"
"StopArea:DUA8768400","Montargis","","100"
"StopArea:DUA8768411","Bourron-Marlotte - Grez-sur-Loing","Avenue Blaise de Montesquiou 77780 Bourron-Marlotte","5"
"StopArea:DUA8768412","Saint-Pierre-lès-Nemours","1 Bis Avenue Carnot 77140 Saint-Pierre-les-Nemours","5"
"StopArea:DUA8768419","Bagneaux-sur-Loing","Place de la gare 77167 Bagneaux-sur-Loing","5"
"StopArea:DUA8768421","Souppes-sur-Loing - Château-Landon","Rue Paul Rollin 77460 Souppes-sur-Loing","5"
"StopArea:DUA8768423","Dordives","","100"
"StopArea:DUA8768666","Paris Bercy","","1"
"StopArea:DUA8775800","Charles-de-Gaulle Étoile","","1"
"StopArea:DUA8775801","La Grande Arche de la Défense","","3"
"StopArea:DUA8775836","Lognes","","5"
"StopArea:DUA8775859","Auber","","1"
"StopArea:DUA8775872","Robinson","","3"
"StopArea:DUA8775874","La Croix de Berny","","3"
"StopArea:DUA8775882","Lozère","","4"
"StopArea:DUA8775885","Bures-sur-Yvette","","5"
"StopArea:DUA8711127","Porte de Clichy","190 ter, Avenue de Clichy 75017   Paris","1"
"StopArea:DUA8711340","Bondy","1 place de la République 93140 BONDY","3"
"StopArea:DUA8711369","Rosny-sous-Bois Perrier","Rue Léon Blum 93110 Rosny sous bois","3"
"StopArea:DUA8711374","Nogent - Le Perreux","place du Théâtre 94130 NOGENT-SUR-MARNE","3"
"StopArea:DUA8711379","Villiers-sur-Marne - Le Plessis-Trévise","place Pierre Sémard 94350 VILLIERS-SUR-MARNE","4"
"StopArea:DUA8711385","Les Pavillons-sous-Bois","Boulevard Louis Pasteur 93320 Les Pavillons sous Bois","4"
"StopArea:DUA8711601","Gretz-Armainvilliers","Avenue de la Liberté 77220 Gretz-Armainvilliers","5"
"StopArea:DUA8711607","Verneuil-l'Étang","","5"
"StopArea:DUA8711616","Provins","Avenue Jean Jaures 77160 Provins","5"
"StopArea:DUA8711617","Sainte-Colombe Septveilles","Rue Victor Hugo 77650 Sainte-Colombe","5"
"StopArea:DUA8711632","Esbly","","5"
"StopArea:DUA8711634","Chailly - Boissy-le-Châtel","","5"
"StopArea:DUA8711637","Saint-Rémy-la-Vanne","","5"
"StopArea:DUA8711657","Chézy-sur-Marne","","100"
"StopArea:DUA8727102","Gare du Nord","","1"
"StopArea:DUA8727142","Sevran - Livry-Gargan","1, Place de la gare, 93270 Sevran","4"
"StopArea:DUA8727148","Parc des expositions","Avenue des Nations, 93420 Villepinte","4"
"StopArea:DUA8727605","Ermont - Eaubonne","","4"
"StopArea:DUA8727606","Cernay","Rue Gallieni 95120 Ermont","4"
"StopArea:DUA8727607","Franconville - Le Plessis-Bouchard","Place de la gare 95130 Franconville","4"
"StopArea:DUA8727623","Les Noues","Rue des Bergeronnettes","5"
"StopArea:DUA8727628","La Borne Blanche","","100"
"StopArea:DUA8727643","Domont","PLACE DE LA GARE 95330 DOMONT","4"
"StopArea:DUA8727645","Bruyères-sur-Oise","Rue de la gare 95820 Bruyères-sur-Oise","100"
"StopArea:DUA8727649","Montsoult - Maffliers","Rue Emile Combres 95560 Montsoult Maffliers","5"
"StopArea:DUA8727650","Presles - Courcelles","Place de la gare 95590 Presles","5"
"StopArea:DUA8727660","Saint-Leu-la-Forêt","Place Cyrille Lecomte 95320 Saint-Leu-la-Forêt","4"
"StopArea:DUA8727675","Nointel - Mours","Rue Jean Saunier 95590 Nointel","5"
"StopArea:DUA8733295","Pussay Route de Monnerville","","5"
"StopArea:DUA8738103","Avenue Foch","91 Boulevard Flandrin  75016   Paris","1"
"StopArea:DUA8738109","Le Stade","Boulevard de Finlande 92700 Colombes","3"
"StopArea:DUA8738112","Chichy - Levallois-Perret","5 place du 8 mai 1945 92110 Clichy","2"
"StopArea:DUA8738114","Osny","Rue Aristide Briand 95520 Osny","5"
"StopArea:DUA8738118","Santeuil - Le Perchay","Rue Tour de Voisne 95640 Santeuil","5"
"StopArea:DUA8738119","Chars","Place de Verdun 95750 Chars","5"
"StopArea:DUA8738120","Lavilletertre","","100"
"StopArea:DUA8738121","Liancourt-Saint-Pierre","","100"
"StopArea:DUA8738141","Éragny - Neuville-sur-Oise","Place Alexandre Prachay 95610 Eragny sur Oise","5"
"StopArea:DUA8738155","Juziers","Avenue de la Gare 78820 Juziers","5"
"StopArea:DUA8738158","Limay","Boulevard Pasteur 78520 Limay","5"
"StopArea:DUA8738161","Ménerville","Place de la Gare 78200 Ménerville","5"
"StopArea:DUA8738165","Achères","Rue du Moulin (depuis N186)","5"
"StopArea:DUA8738187","La Frette-sur-Seine - Montiny-lès-Cormeilles","Place de la Gare 95530 La Frette Sur Seine","4"
"StopArea:DUA8738221","La Défense","Rue Carpeaux - 92800 Puteaux","3"
"StopArea:DUA8738237","Suresnes Mont Valérien","Rue Worth 92150 Suresnes","3"
"StopArea:DUA8738243","La Celle-Saint-Cloud","Place Jean Mermoz 78170 La Celle Saint Cloud","4"
"StopArea:DUA8738245","Louveciennes","","4"
"StopArea:DUA8738248","Saint-Nom-la-Bretèche Forêt de Marly","Route de Saint Nom la Bretèche 78620 L'Etang La Ville","5"
"StopArea:DUA8738281","Mareil-Marly","","4"
"StopArea:DUA8738288","Viroflay Rive Droite","1 Place de Stalingrad","3"
"StopArea:DUA8738640","Houilles - Carrières-sur-Seine","Place André Malraux (Rond point)","4"
"StopArea:DUA8738666","Les Clairières de Verneuil","Place de la Résistance 78480 Verneuil Sur Seine","5"
"StopArea:DUA8739156","Clamart","Place de la Gare 92140 Clamart","2"
"StopArea:DUA8739310","Meudon","Place du 8 Mai 1945 92190 Meudon","3"
"StopArea:DUA8739315","Versailles Rive Gauche Château","5, Avenue du Général De Gaulle 78000   Versailles","4"
"StopArea:DUA8739321","Viroflay Rive Gauche","1 Rue Riesseuc 78220 Viroflay","3"
"StopArea:DUA8739325","La Verrière","Avenue Guy Schuler 78320 La Verrières","5"
"StopArea:DUA8739328","Les Essarts-le-Roi","Rue de la Cité 78690 Les Essarts Le Roi","5"
"StopArea:DUA8739332","Boulevard Victor","193, Quai André Citroën 75015 Paris","1"
"StopArea:DUA8739344","Orgerus - Béhoust","Rue de la Gare 78910 Orgerus","5"
"StopArea:DUA8739347","Marchezais - Broué","","100"
"StopArea:DUA8739348","Dreux","","100"
"StopArea:DUA8739350","Les Loges-en-Josa le Petit Jouy","Chemin de Petit Jouy 78350   Les Loges-en-Jouy","4"
"StopArea:DUA8739354","Bièvres","Place de la Gare 91570   Bièvres","4"
"StopArea:DUA8739383","Trappes","Avenue Gabriel Péri 78 190 Trappes","5"
"StopArea:DUA8739415","Jouy","","100"
"StopArea:DUA8741560","Vernon","","100"
"StopArea:DUA8741589","Bonnières","Place du 8 Mai 1945 78270 Bonnières sur seine","5"
"StopArea:DUA8743088","Jouy-sur-Morin Monument aux Morts","","5"
"StopArea:DUA8754309","Angerville","","5"
"StopArea:DUA8754320","Avenue du Président Kennedy Radio France","6, Rue du Ranelagh 75016   Paris","1"
"StopArea:DUA8754512","Guillerval","","5"
"StopArea:DUA8754518","Marolles-en-Hurepoix","Place de la Gare 91630   Marolles-en-Hurepoix","5"
"StopArea:DUA8754519","Brétigny-sur-Orge","Place Pierre Venin 91220  Brétigny-sur-Org","5"
"StopArea:DUA8754546","Arpajon","Rue Aristide Briand 91290   Arpajon","5"
"StopArea:DUA8754548","Breuillet - Bruyères-le-Châtel","Route d'Arpajon 91650   Breuillet","5"
"StopArea:DUA8754551","Sermaise","Route de Dourdan 91530   Sermaise","5"
"StopArea:DUA8754575","Châteaudun","","100"
"StopArea:DUA8754622","Les Saules","Voie les Saules 94310   Orly","4"
"StopArea:DUA8768124","Le Vert de Maisons","Avenue de la Liberté 94700 Maisons Alfort","3"
"StopArea:DUA8768130","Vigneux-sur-Seine","Place Robert Lakota 91270 Vigneux Sur Seine","4"
"StopArea:DUA8768136","Évry","Avenue du Gl Patton 91000 Evry","5"
"StopArea:DUA8768137","Grigny","Route de Corbeil 91350 Grigny centre","5"
"StopArea:DUA8768148","Maisse","Rue de Milly 91720 Maisse","5"
"StopArea:DUA8768161","Villabé","Avenue de la Gare 91100 Villabé","5"
"StopArea:DUA8768162","Le Plessis Chenet","Gare SNCF 91830 Coudray Montceaux","5"
"StopArea:DUA8768185","Villeneuve-Saint-Georges Prairie","Chemin des Vaches","3"
"StopArea:DUA8768240","Livry-sur-Seine","Rue de Melun 77000 Livry-sur- Seine","5"
"StopArea:DUA8768250","Vosves","Rue de la Gare 77190 Dammarie Les Lys","5"
"StopArea:DUA8768310","Villeneuve-la-Guyard","","100"
"StopArea:DUA8768320","Étigny - Véron","","100"
"StopArea:DUA8768322","Saint-Julien-du-Sault","","100"
"StopArea:DUA8775805","Rueil-Malmaison","","3"
"StopArea:DUA8775812","Fontenay-sous-Bois","","3"
"StopArea:DUA8775818","La Varenne Saint-Hilaire - Chennevières-sur-Marne","","3"
"StopArea:DUA8775820","Boissy-Saint-Léger","","4"
"StopArea:DUA8775834","Noisy-le-Grand Champs","","4"
"StopArea:DUA8775837","Torcy","","5"
"StopArea:DUA8775863","Denfert Rochereau","","1"
"StopArea:DUA8775865","Gentilly","","2"
"StopArea:DUA8707090","Aéroport Orly Ouest","","3"
"StopArea:DUA8711320","Pantin","Avenue de la gare 93500 Pantin","2"
"StopArea:DUA8711371","Val de Fontenay","10 avenue du Val de Fontenay 94120 Fontenay-sous-Bois","3"
"StopArea:DUA8711384","Les Coquetiers","","3"
"StopArea:DUA8711387","Allée de la Tour Rendez-Vous","Boulevard d'Aulnay 93250 Villemomble","4"
"StopArea:DUA8711613","Longueville","Rue de Verdun 77650 Longueville","5"
"StopArea:DUA8711626","Guérard - La Celle-sur-Morin","PLACE DE LA GARE 77580 GUERARD","5"
"StopArea:DUA8711630","Coulommiers","Place du 8 mai 1945 77120 Coulommiers","5"
"StopArea:DUA8711631","Lagny - Thorigny","2 rue de la gare 77400 Thorigny-sur-Marne","5"
"StopArea:DUA8711655","Nanteuil-sur-Marne - Saâcy-sur-Marne","Avenue du Général Leclerc 77730 Saâcy-sur-Marne","5"
"StopArea:DUA8711663","Lizy-sur-Ourcq","","5"
"StopArea:DUA8711664","Crouy-sur-Ourcq","Rue du Houssoy 77840 Crouy-sur-Ourcq","5"
"StopArea:DUA8716478","Saint-Denis la Plaine Stade de France","Place aux Etoiles 93200 St Denis","2"
"StopArea:DUA8727101","Saint-Denis","Rue Ambroise Croizat 93200 St Denis","3"
"StopArea:DUA8727114","Épinay-sur-Seine","Place de la Nouvelle Gare, 93800 Epinay-sur-Seine","3"
"StopArea:DUA8727116","Pierrefitte-sur-Seine - Stains","1 Place du Général Leclerc 93380 Pierrefite sur Seine","4"
"StopArea:DUA8727139","Le Bourget","Place des Déportés, 93350 Le Bourget","3"
"StopArea:DUA8727145","Villepinte","Route Camille Pissaro, 93420 Villepinte","4"
"StopArea:DUA8727608","Montigny-lès-Cormeilles - Beauchamp","Place de la Gare, 95370 Montigny Les Cormeilles","4"
"StopArea:DUA8727610","Saint-Ouen-l'Aumône","rue du 8 mai 1945 95310 Saint-Ouen-l'Aumône","5"
"StopArea:DUA8727611","Chantilly - Gouvieux","","100"
"StopArea:DUA8727616","Chaponval","Rue de Chaponval 95430 Auvers-sur-Oise","5"
"StopArea:DUA8727619","Garges-les-Gonesse - Sarcelles","Boulevard Maurice Thorez 95140 Garges les Gonesses","4"
"StopArea:DUA8727626","Survilliers - Fosses","Place Jean Moulin 95470 Survilliers","5"
"StopArea:DUA8727638","Sarcelles - Saint-Brice-sous-Forêt","Boulevard du Docteur Galvani / Place de la Gare","4"
"StopArea:DUA8727640","Saint-Leu-d'Esserent","","100"
"StopArea:DUA8727651","Champagne-sur-Oise","Rue Louis Pasteur 95660 Champgne-sur-Oise","5"
"StopArea:DUA8727658","Ermont","Rue de la Halte 95120 Ermont","4"
"StopArea:DUA8727659","Gros Noyer Saint-Prix","Rue du gros Noyer 95120 Ermont","4"
"StopArea:DUA8733294","Monnerville","","5"
"StopArea:DUA8733798","Saint-Ouen-l'Aumône Liesse","","4"
"StopArea:DUA8738122","Chaumont-en-Vexin","","100"
"StopArea:DUA8738123","Trie-Château","","100"
"StopArea:DUA8738162","Bréval","Avenue Noël Duchesne 78980 Bréval","5"
"StopArea:DUA8738179","Val d'Argenteuil","Boulevard de la Résistance 95100 Argenteuil","4"
"StopArea:DUA8738182","Thun le Paradis","Rue des Annonciades 78250 Meulan","5"
"StopArea:DUA8738183","Meulan-en-Yvelines - Hardricourt","Avenue de la Gare 78250 Meulan Hardricourt","5"
"StopArea:DUA8738184","Argenteuil","Place Pierre Sémard 95100 Argenteuil","5"
"StopArea:DUA8738186","Cormeilles-en-Parisis","1 Place Pierre Sémard 95240 Cormeilles en Parisis","4"
"StopArea:DUA8738188","Herblay","Place Gabriel Peri 95220 Herblay","4"
"StopArea:DUA8738189","Conflans-Sainte-Honorine","2 Ter Rue Eugène Berrurier 78700 Conflans Ste Honorine","5"
"StopArea:DUA8738200","Bécon les Bruyères","Rue Madira - 92400 Courbevoie","3"
"StopArea:DUA8738220","Courbevoie","Rue de Sébastopol 92400 Courbevoie","3"
"StopArea:DUA8738225","Garches - Marnes-la-Coquette","","3"
"StopArea:DUA8738233","Chaville Rive Droite","32 Rue Carnot  92370 Chaville","3"
"StopArea:DUA8738234","Sèvres - Ville-d'Avray","Place Pierre Brosselette 92310 Sèvres","3"
"StopArea:DUA8738244","Bougival","Place Maréchal Leclerc 78170 La Celle-Saint-Cloud","4"
"StopArea:DUA8738246","Marly-le-Roi","Rue Carnot 78160 Marly le Roi","4"
"StopArea:DUA8738249","Cergy Saint-Christophe","Rue des pas perdus","5"
"StopArea:DUA8738265","Cergy le Haut","Rue de l'Espérance","5"
"StopArea:DUA8738280","Saint-Germain-en-Laye Grande Ceinture","Place Christiane Frahier 78100 St Germain en Laye","4"
"StopArea:DUA8738328","Massy - Verrières-le-Buisson","2 bis, Avenue de la Gare  91300   Massy","4"
"StopArea:DUA8738400","Paris Saint-Lazare","","1"
"StopArea:DUA8738631","Nanterre Université","33 Boulevard des Provinces Françaises 92000 Nanterre","3"
"StopArea:DUA8738642","Maisons-Laffitte","Place de la Libération par l'avenue du Général De Gaulle","4"
"StopArea:DUA8738664","Villennes-sur-Seine","70 Place de la Libération 78670 Villennes sur Seine","5"
"StopArea:DUA8738673","Aubergenville Élisabethville","Rue de la Gare 78410 Aubergenville","5"
"StopArea:DUA8739306","Javel","Rond point du Pont Mirabeau 75015   Paris","1"
"StopArea:DUA8739308","Meudon Val Fleury","1, Place Jean Jaurès 92190   Meudon","3"
"StopArea:DUA8739327","Coignières","Rue de la Gare 78310 Coignières","5"
"StopArea:DUA8739330","Issy Val de Seine","87, Avenue de Verdun 92130   Issy-les-Moulineaux","2"
"StopArea:DUA8739334","Gazeran","Rue du Château d'Eau 78125 Gazeran","5"
"StopArea:DUA8739336","Beynes","16 Avenue de la Gare 78650 Beynes","5"
"StopArea:DUA8739346","Houdan","Boulevard de la Gare 78550 Houdan","5"
"StopArea:DUA8739353","Vauboyen","Rue de Vauboyen 78350   Jouy-en-Josas","4"
"StopArea:DUA8739356","Igny","1, Avenue Jean Jaurès 91430   Igny","4"
"StopArea:DUA8739362","Plaisir - Les Clayes-sous-Bois","Rue des Vicomtes 78730 Plaisir","5"
"StopArea:DUA8739387","Noisy-le-Roi","Place de la gare 78590 Noisy le Roi","5"
"StopArea:DUA8739389","Montfort-l'Amaury - Méré","Place Louis Valtou 78490 Méré","5"
"StopArea:DUA8741588","Rosny-sur-Seine","Rue de la Gare 78710 Rosny Sur Seine","5"
"StopArea:DUA8743081","La Ferté-Gaucher","","5"
"StopArea:DUA8743090","Jouy-sur Morin Eustache Lenoir","","5"
"StopArea:DUA8754511","Monnerville","","5"
"StopArea:DUA8754513","Étampes","Place du Général Leclerc 91150   Etampes","5"
"StopArea:DUA8754517","Bouray-sur-Juine","Paté de Lardy 91850  Lardy","5"
"StopArea:DUA8754520","Saint-Michel-sur-Orge","Rue Anatole France 91240   Saint-Michel-sur-Orge","5"
"StopArea:DUA8754522","Épinay-sur-Orge","1, Place Stalingrad 91360   Epinay-sur-Orge","4"
"StopArea:DUA8754523","Savigny-sur-Orge","Place de la Gare 91600   Savigny-sur-Orge","4"
"StopArea:DUA8754526","Ablon","Place de la Libération 94480   Ablon-sur-Seine","4"
"StopArea:DUA8754529","Vitry-sur-Seine","Cour de la Gare 94400   Vitry-sur-Seine","3"
"StopArea:DUA8754552","Dourdan","Place Amédée Guénée 91410   Dourdan","5"
"StopArea:DUA8754631","Chemin d'Antony","Rue Lavoisier 92160   Antony","4"
"StopArea:DUA8754702","Paris Austerlitz RER C","","1"
"StopArea:DUA8768134","Ris-Orangis Bois de l'Épine","Avenue de la Résistance 91130 Ris Orangis","5"
"StopArea:DUA8768138","Évry - Courcouronnes","Place des droits de L'homme 91000 Evry","5"
"StopArea:DUA8768147","Boutigny","Place de la Gare 91820 Boutigny Sur Essonne","5"
"StopArea:DUA8768180","Villeneuve-Saint-Georges Triage ->","2 Avenue de Choisy 94190 Villeneuve St Georges","4"
"StopArea:DUA8768182","Villeneuve-Saint-Georges","Place Pierre Sémart 94190 Villeneuve St Georges","4"
"StopArea:DUA8768213","Boussy-Saint-Antoine","Rue de la Gare 91800","5"
"StopArea:DUA8768216","Cesson","Rue de La Gare, 77240 Cesson","5"
"StopArea:DUA8768227","Moret-sur-Loing - Veneux-les-Sablons","Place de la Gare 77250 Veneux-les-Sablons","5"
"StopArea:DUA8768229","Saint-Mammès","Rue de la gare 77670 Saint-Mammès","5"
"StopArea:DUA8768251","Boissise-le-Roi","Rue de Ponthierry 77310","5"
"StopArea:DUA8768300","Sens","","100"
"StopArea:DUA8768321","Villeneuve-sur-Yonne","","100"
"StopArea:DUA8768326","Laroche-Saint-Cydroine - Migennes","","100"
"StopArea:DUA8768410","Montigny-sur-Loing","Avenue de la gare 77690 Montigny-sur-Loing","5"
"StopArea:DUA8768440","Boigneville","Place de la Gare 91720 Boigneville","5"
"StopArea:DUA8768603","Paris Gare de Lyon Banlieue","","1"
"StopArea:DUA8773006","Val d'Europe","","5"
"StopArea:DUA8711321","Noisy-le-Sec","Rue de la gare 93130 Noisy le sec","3"
"StopArea:DUA8711351","Gagny","Place de Verdun 93220 Gagny","4"
"StopArea:DUA8711352","Gagny le Chênay","5 rue du chemin de fer 93220 Gagny","4"
"StopArea:DUA8711388","L'Abbaye","Avenue de la Gare de l'Abbaye, 93600 Livry-Gargan","4"
"StopArea:DUA8711587","Champbenoist Poigny","Rue de Champbenoist, 77160 Provins","5"
"StopArea:DUA8711603","Roissy-en-Brie","Place de la gare 77680 Roissy-en-Brie","5"
"StopArea:DUA8711610","Meaux","Place de la gare 77100 Meaux","5"
"StopArea:DUA8711611","Chelles - Gournay","place du grand jardin 77500 Chelles","4"
"StopArea:DUA8711628","Mouroux","Avebue de la gare 77120 Mouroux","5"
"StopArea:DUA8711629","Vaires - Torcy","Place du Général de Gaulle 77360 Vaires-sur-Marne","5"
"StopArea:DUA8711635","Chauffry","","5"
"StopArea:DUA8711636","Saint-Siméon","La montagne 77169 Saint-Siméon","5"
"StopArea:DUA8711658","Château-Thierry","","100"
"StopArea:DUA8711661","Iles-les-Meldeuses - Armentière-en-Brie - Congis-sur-Thérouanne","Rue de la gare 77440 Isles-les-Meldeuses","5"
"StopArea:DUA8711673","Couilly-Pont-aux-Dames - Saint-Germain-sur-Morin - Quincy-Voisin","Place de la Gare 77860 Saint-Germain-sur-Morin","5"
"StopArea:DUA8716479","Saint-Denis la Plaine Stade de France","Av du Stade de France, 93210 La Plaine Saint Denis.","2"
"StopArea:DUA8727103","Gare du Nord Surface","","1"
"StopArea:DUA8727130","La Courneuve - Aubervilliers","Av Victor Hugo, 93120 La Courneuve","3"
"StopArea:DUA8727140","Drancy","193, Rue Anatole France, 93700 Drancy","3"
"StopArea:DUA8727143","Vert Galant","3, Place de la Gare, 93420 Villepinte","4"
"StopArea:DUA8727151","Villeparisis","2, Place du 19 Mars 1962, 77290 Mitry Le Neuf","5"
"StopArea:DUA8727152","Mitry-Claye","Rue Jean Caille, 77290, Mitry Mory","5"
"StopArea:DUA8727155","Le Plessis-Belleville","","5"
"StopArea:DUA8727203","Seugy","rue de la gare 95270 Seugy","5"
"StopArea:DUA8727204","Compans","Rue saint Lambert 77920 Compans","5"
"StopArea:DUA8727205","Thieux - Nantouillet","Rue des Trois-villes 77230 Thieux","5"
"StopArea:DUA8727609","Pierrelaye","Place du 8 Mai 1945 95480 Pierrelaye","5"
"StopArea:DUA8727624","Goussainville","Place du 8 mai 1945 95190 Goussainvilles","5"
"StopArea:DUA8727634","Deuil-la-Barre - Montmagny","Avenue du Commandant Manoukian","4"
"StopArea:DUA8727648","Bouffémont - Moisselles","PLACE DE LA GARE 95570 BOUFFEMONT","5"
"StopArea:DUA8727655","Belloy-en-France - Saint-Martin-du-Tertre","Place de la gare 95270 Belloy-en-France","5"
"StopArea:DUA8727663","Taverny","Place de la gare 95150 Taverny","4"
"StopArea:DUA8727664","Bessancourt","Avenue Dupressoir de la Chardonnière 95550 Bessancourt","5"
"StopArea:DUA8727665","Frépillon","Avenue Gaston Bourry 95740 Frépillon","5"
"StopArea:DUA8733297","Angerville Salle des Fêtes","","5"
"StopArea:DUA8738115","Boissy-l'Aillerie","Rue de la Gare 95650 Boissy l'Aillerie","5"
"StopArea:DUA8738117","Us","Rue de la Gare 95450 Us","5"
"StopArea:DUA8738148","Maurecourt","Rue de Bel Air 78570 Andrésy","5"
"StopArea:DUA8738156","Gargenville","Place de la Gare 78440 Gargenville","5"
"StopArea:DUA8738157","Issou - Porcheville","Rue de la Gare 78440 Issou","5"
"StopArea:DUA8738172","Maule","20 Boulevard Paul Barré 78580 Maule","5"
"StopArea:DUA8738173","Nézel - Aulnay-sur-Mauldre","Place de la gare 78410 Nézel","5"
"StopArea:DUA8738180","Triel-sur-Seine","Place de la Gare 78510 Triel Sur Seine","5"
"StopArea:DUA8738236","Le Val d'Or","33, Avenue Alfred Belmontet 92210 Saint Cloud","3"
"StopArea:DUA8738247","L'Étang-la-Ville","","5"
"StopArea:DUA8738287","Montreuil","Rue de la Bonne Aventure 78000 Versailles","4"
"StopArea:DUA8738600","La Garenne-Colombes","","3"
"StopArea:DUA8738630","Les Vallées","Place des la gare des Vallées 92250 La Garenne Colombes","3"
"StopArea:DUA8738665","Vernouillet - Verneuil-sur-Seine","Place Charles de Gaulle 78480 Verneuil Sur Seine","5"
"StopArea:DUA8738668","Les Mureaux","Place du 8 Mai 1945 78130 Les Mureaux","5"
"StopArea:DUA8739100","Paris Montparnasse","Place Raoul Dautry","1"
"StopArea:DUA8739312","Sèvres Rive Gauche","1 Rue Auguste Rodin 92310 Sèvres","3"
"StopArea:DUA8739320","Chaville Rive Gauche","29 Rue Anatole France 92370 Chaville","3"
"StopArea:DUA8739340","Fontenay-le-Fleury","Rue Georges Pompidou - D127  78330 Fontenay le Fleury","5"
"StopArea:DUA8739341","Villepreux - Les Clayes-sous-Bois","Allée de la Gare 78340 Les Clayes Sous Bois","5"
"StopArea:DUA8739365","Petit Vaux","Rue du Petit Vaux  91360   Epinay-sur-Orge","4"
"StopArea:DUA8754524","Juvisy-sur-Orge","","4"
"StopArea:DUA8775862","Port Royal","","1"
"StopArea:DUA8775873","Parc de Sceaux","","4"
"StopArea:DUA8775877","Les Baconnets","","4"
"StopArea:DUA8775889","Saint-Rémy-lès-Chevreuse","","5"
"StopArea:DUA8798870","Bondy Remise à Jorelle","","3"
"StopArea:DUA8739343","Garancières - La Queue-les-Yvelines","Place de la gare 78890 Garancière la Queue","5"
"StopArea:DUA8739357","Massy - Palaiseau","6, Place Pierre Sémard 91300   Massy","4"
"StopArea:DUA8739363","Chilly-Mazarin","Rue du Chemin de Fer 91380   Chilly-Mazarin","4"
"StopArea:DUA8743091","Jouy-sur-Morin Champgoulin","","5"
"StopArea:DUA8743179","Rougemont Chanteloup","","4"
"StopArea:DUA8754550","Saint-Chéron","Place de la Gare 91530   Saint-Chéron","5"
"StopArea:DUA8754619","Pont de Rungis Aéroport d'Orly","Avenue du Docteur Marie 94150   Thiais","4"
"StopArea:DUA8754731","Saint-Michel Notre Dame","Quai Saint Michel 75005   Paris","1"
"StopArea:DUA8768115","Maisons-Alfort - Alfortville","1 Place Jean Moulin 94149 Maison Alfort","3"
"StopArea:DUA8768140","Moulin Galant","Rue Paul Bert 91100 Corbeil-Essonnes","5"
"StopArea:DUA8768143","Ballancourt-sur-Essonne","Avenue du Général Leclerc 91610","5"
"StopArea:DUA8768145","La Ferté-Alais","14 Avenue G. Leclerc 91590 La Fertais Alais","5"
"StopArea:DUA8768151","Buno-Bonnevaux - Gironville-sur-Essonne","Rue de la gare/ Rue de Gironville 91720","5"
"StopArea:DUA8768160","Corbeil-Essonnes Robinson","Bld Combes Marnes, 91100 Corbeil Essonnes","5"
"StopArea:DUA8768163","Le Coudray-Montceaux","Avenue du Coudray, Place de la Gare 91830 Le Coudray Montceaux","5"
"StopArea:DUA8768218","Savigny-le-Temple - Nandy","Avenue Jean Moulin 77547 Savigny le Temple","5"
"StopArea:DUA8768220","Bois-le-Roi","Rue de la gare 77590 Bois-le-Roi","5"
"StopArea:DUA8768225","Thomery","Chemin forestier 77300 Fontainebleau","5"
"StopArea:DUA8768242","Fontaine-le-Port","Quai Fernand Soupeaux 77590 Fontaine-le-Port","5"
"StopArea:DUA8768243","Héricy","Avenue Fernand Dalaine 77850 Hericy","5"
"StopArea:DUA8768245","Champagne-sur-Seine","Place de l'Europe 77430 Champagne-sur-Seine","5"
"StopArea:DUA8768252","Saint-Fargeau-Ponthierry - Pringy","Rue Maurice Leroy 77310 Saint Fargeau-Ponthierry","5"
"StopArea:DUA8768312","Champigny","","100"
"StopArea:DUA8768424","Ferrières-en-Gâtinais - Fontenay-sur-Loing","","100"
"StopArea:DUA8775498","Bussy-Saint-Georges","","5"
"StopArea:DUA8775802","Nanterre Préfecture","","3"
"StopArea:DUA8775804","Nanterre","","3"
"StopArea:DUA8775806","Chatou - Croissy-sur-Seine","","4"
"StopArea:DUA8775810","Nation","","1"
"StopArea:DUA8775816","Le Parc de Saint-Maur","","3"
"StopArea:DUA8775817","Champigny","","3"
"StopArea:DUA8775831","Neuilly-Plaisance","","3"
"StopArea:DUA8775866","Laplace","","2"
"StopArea:DUA8775869","Bourg-la-Reine","","3"
"StopArea:DUA8775880","Palaiseau","","4"
"StopArea:DUA8775881","Palaiseau - Villebon-sur-Yvette","","4"
"StopArea:DUA8775883","Le Guichet","","5"
"StopArea:DUA8775884","Orsay","","5"
"StopArea:DUA8775499","Marne la Vallée - Chessy","","5"
"StopArea:DUA8775803","Nanterre Université","","3"
"StopArea:DUA8775811","Vincennes","","2"
"StopArea:DUA8775813","Nogent-sur-Marne","","3"
"StopArea:DUA8775815","Saint-Maur-des-Fossés - Créteil","","3"
"StopArea:DUA8775819","Sucy-en-Brie - Bonneuil-sur-Marne","","4"
"StopArea:DUA8775833","Noisy-le-Grand Mont d'Est","","4"
"StopArea:DUA8775867","Arcueil - Cachan","","3"
"StopArea:DUA8775870","Sceaux","","3"
"StopArea:DUA8775875","Antony","","3"
"StopArea:DUA8775876","Fontaine Michalon","","4"
"StopArea:DUA8775887","Gif-sur-Yvette","","5"
"StopArea:DUA8778543","Saint-Michel","","1"
"StopArea:DUA8798871","Lycée Henri Sellier","","4"